,City,Latitude,Longitude,Max Temp,Humidity,Cloudiness,Wind Speed,Country
0,grand gaube,-20.01,57.66,71.01,72.0,3.0,5.99,MU
1,hermanus,-34.42,19.23,48.0,78.0,88.0,5.99,ZA
2,barrow,71.29,-156.79,50.0,76.0,1.0,19.46,US
3,magnolia,33.27,-93.24,93.0,46.0,23.0,4.0,US
4,busselton,-33.65,115.33,52.0,82.0,96.0,14.36,AU
5,caramay,10.18,119.24,79.39,80.0,100.0,3.06,PH
6,port alfred,-33.59,26.89,53.11,74.0,58.0,31.32,ZA
8,rikitea,-23.12,-134.97,71.67,75.0,19.0,7.38,PF
9,norman wells,65.28,-126.83,60.8,55.0,75.0,9.17,CA
10,sorland,67.67,12.69,50.59,75.0,96.0,6.11,NO
11,mataura,-46.19,168.86,35.01,97.0,95.0,4.0,NZ
12,san patricio,19.22,-104.7,82.4,78.0,90.0,23.04,MX
13,bayan,46.08,127.4,73.0,98.0,100.0,15.55,CN
14,tiksi,71.69,128.87,45.5,95.0,100.0,2.06,RU
15,guerrero negro,27.98,-114.06,84.34,47.0,0.0,17.07,MX
16,ushuaia,-54.8,-68.3,35.6,80.0,75.0,14.99,AR
17,yellowknife,62.46,-114.35,68.0,52.0,20.0,6.93,CA
18,vaini,-21.2,-175.2,75.2,73.0,75.0,12.75,TO
19,bredasdorp,-34.53,20.04,44.6,81.0,57.0,12.75,ZA
20,coquimbo,-29.95,-71.34,51.8,76.0,90.0,3.36,CL
21,jamestown,42.1,-79.24,71.01,82.0,75.0,3.36,US
22,port hardy,50.7,-127.42,77.0,53.0,20.0,12.75,CA
23,soure,-0.72,-48.52,80.53,82.0,6.0,14.38,BR
24,carnarvon,-24.87,113.63,51.8,100.0,16.0,5.82,AU
25,rio cuarto,-33.13,-64.35,62.6,20.0,0.0,13.87,AR
26,butaritari,3.07,172.79,81.91,63.0,1.0,8.68,KI
27,karasburg,-28.02,18.75,42.48,83.0,23.0,15.75,NA
28,ugoofaaru,5.67,73.0,82.44,74.0,99.0,7.02,MV
29,saint george,37.1,-113.58,111.99,5.0,1.0,4.25,US
30,albany,42.6,-73.97,75.0,72.0,7.0,4.21,US
31,hasaki,35.73,140.83,86.0,94.0,75.0,6.93,JP
32,aklavik,68.22,-135.01,64.4,63.0,20.0,8.05,CA
33,bathsheba,13.22,-59.52,78.8,94.0,75.0,9.17,BB
34,tosya,41.02,34.04,53.19,53.0,0.0,1.68,TR
35,kamina,-8.74,24.99,67.59,26.0,0.0,1.95,CD
36,bethel,41.37,-73.41,69.8,88.0,90.0,4.7,US
37,mahanje,-9.93,35.33,59.59,77.0,46.0,2.28,TZ
38,itarema,-2.92,-39.92,78.33,75.0,29.0,16.31,BR
39,nikolskoye,59.7,30.79,51.8,100.0,1.0,2.24,RU
40,thompson,55.74,-97.86,64.4,55.0,75.0,6.93,CA
41,hobart,-42.88,147.33,48.99,93.0,75.0,5.82,AU
43,palmer,42.16,-72.33,75.2,64.0,75.0,9.17,US
44,tiarei,-17.53,-149.33,84.2,58.0,20.0,5.82,PF
46,kapaa,22.08,-159.32,84.2,62.0,20.0,14.99,US
47,atuona,-9.8,-139.03,78.37,76.0,9.0,15.41,PF
48,saint-philippe,-21.36,55.77,66.2,63.0,20.0,6.93,RE
49,mahebourg,-20.41,57.7,69.8,77.0,20.0,9.17,MU
50,punta arenas,-53.15,-70.92,37.4,69.0,75.0,16.11,CL
51,moerai,-22.43,-151.33,70.74,72.0,82.0,15.28,PF
52,arraial do cabo,-22.97,-42.03,75.2,78.0,40.0,5.82,BR
53,east london,-33.02,27.91,57.13,61.0,55.0,23.64,ZA
54,melbourne,28.08,-80.61,80.6,94.0,40.0,11.41,US
55,coahuayana,18.73,-103.68,75.2,88.0,90.0,11.41,MX
56,bambous virieux,-20.34,57.76,71.01,77.0,20.0,9.17,MU
57,fortuna,40.6,-124.16,64.0,86.0,100.0,5.01,US
58,wanaka,-44.7,169.15,41.0,82.0,96.0,4.05,NZ
59,broome,42.25,-75.83,75.0,49.0,1.0,8.05,US
61,lincoln,40.8,-96.67,84.99,45.0,1.0,10.29,US
62,westport,41.14,-73.36,70.0,97.0,36.0,9.86,US
63,codrington,-38.27,141.97,48.96,91.0,55.0,12.33,AU
64,bluff,-46.6,168.33,35.01,97.0,98.0,4.0,NZ
65,salme,28.04,85.09,71.6,100.0,75.0,4.7,NP
66,ponta do sol,32.67,-17.1,73.4,73.0,20.0,5.82,PT
67,airai,-8.93,125.41,60.67,67.0,0.0,3.09,TL
68,new norfolk,-42.78,147.06,48.99,90.0,79.0,1.99,AU
69,faanui,-16.48,-151.75,78.44,72.0,17.0,12.06,PF
70,puerto ayora,-0.74,-90.35,66.0,93.0,94.0,8.01,EC
71,qaanaaq,77.48,-69.36,42.85,61.0,100.0,6.96,GL
72,black river,18.03,-77.85,86.0,74.0,40.0,9.17,JM
74,cape town,-33.93,18.42,50.0,70.0,40.0,5.82,ZA
75,kenai,60.55,-151.26,64.4,72.0,20.0,14.99,US
76,alofi,-19.06,-169.92,78.8,65.0,75.0,17.22,NU
77,yeppoon,-23.13,150.73,66.2,72.0,0.0,5.82,AU
78,gonaives,19.45,-72.68,82.38,78.0,14.0,3.49,HT
79,ozernovskiy,51.5,156.52,54.68,83.0,76.0,2.73,RU
80,georgetown,5.41,100.34,77.0,88.0,20.0,1.12,MY
81,hithadhoo,-0.6,73.08,83.5,74.0,42.0,6.67,MV
82,okaihau,-35.32,173.78,59.0,3.0,100.0,14.0,NZ
83,kodiak,57.79,-152.41,64.4,59.0,1.0,9.17,US
85,kruisfontein,-34.0,24.73,50.0,66.0,97.0,13.0,ZA
86,severo-yeniseyskiy,60.37,93.04,46.98,76.0,0.0,2.95,RU
87,chuy,-33.7,-53.46,47.21,81.0,0.0,6.6,UY
88,wildwood,38.58,-90.66,86.0,55.0,75.0,5.82,US
89,japura,-0.32,102.35,73.58,92.0,72.0,2.42,ID
90,cayenne,4.93,-52.33,80.6,78.0,76.0,5.82,GF
91,san cristobal,7.77,-72.22,86.0,62.0,40.0,4.7,VE
92,calca,-13.33,-71.95,57.42,37.0,37.0,7.76,PE
93,isangel,-19.55,169.27,82.4,78.0,90.0,9.17,VU
94,los llanos de aridane,28.66,-17.92,73.99,83.0,3.0,11.41,ES
95,pevek,69.7,170.31,38.77,84.0,100.0,15.32,RU
96,baghdad,33.34,44.4,78.8,34.0,0.0,5.82,IQ
97,visby,57.64,18.3,63.0,93.0,89.0,6.93,SE
98,christchurch,-43.53,172.63,52.0,71.0,99.0,17.22,NZ
99,barcelos,41.54,-8.62,68.0,100.0,75.0,8.05,PT
100,emerald,-23.53,148.17,64.4,34.0,0.0,5.82,AU
101,kavieng,-2.57,150.8,83.26,74.0,4.0,9.73,PG
102,egvekinot,66.32,-179.17,50.14,76.0,90.0,3.67,RU
103,strezhevoy,60.73,77.59,57.2,93.0,90.0,6.71,RU
104,necochea,-38.55,-58.74,41.0,79.0,0.0,1.99,AR
105,adrar,20.5,-10.07,100.24,26.0,0.0,16.6,MR
106,batagay-alyta,67.8,130.41,48.7,54.0,67.0,1.9,RU
107,kiama,-34.68,150.87,62.01,58.0,61.0,1.99,AU
108,hami,42.8,93.45,73.49,21.0,0.0,8.84,CN
110,vrangel,42.73,133.08,70.93,86.0,97.0,1.34,RU
111,jhabua,22.77,74.6,76.12,92.0,99.0,10.76,IN
112,fairbanks,64.84,-147.72,69.8,32.0,1.0,6.93,US
113,rovaniemi,66.5,25.72,46.4,75.0,77.0,5.82,FI
114,yumen,40.28,97.2,56.07,35.0,0.0,1.01,CN
115,oga,46.46,10.35,55.4,100.0,40.0,1.12,IT
116,castro,-24.79,-50.01,60.64,95.0,100.0,7.11,BR
117,baruun-urt,46.68,113.28,53.26,82.0,100.0,15.23,MN
118,khatanga,71.97,102.5,58.75,89.0,100.0,7.09,RU
119,cooma,-36.23,149.13,44.6,75.0,90.0,10.29,AU
120,kulhudhuffushi,6.62,73.07,82.27,76.0,96.0,8.55,MV
121,sibolga,1.74,98.78,75.6,82.0,48.0,4.52,ID
122,lebu,-37.62,-73.65,49.19,83.0,57.0,5.73,CL
123,gazalkent,41.56,69.77,73.4,40.0,40.0,13.87,UZ
124,takoradi,4.88,-1.76,75.07,83.0,85.0,12.3,GH
125,tuktoyaktuk,69.45,-133.04,53.6,71.0,90.0,3.36,CA
126,ilebo,-4.32,20.58,78.21,58.0,83.0,1.81,CD
127,lavrentiya,65.58,-171.0,50.27,78.0,100.0,3.96,RU
128,musenita,47.97,26.0,68.0,10.0,37.0,3.11,RO
129,nizwa,22.93,57.53,89.46,41.0,23.0,0.54,OM
130,esmeralda,21.85,-78.12,77.0,100.0,93.0,2.24,CU
131,chkalovsk,56.76,43.24,44.6,93.0,0.0,8.97,RU
132,kavaratti,10.57,72.64,80.96,82.0,92.0,12.59,IN
133,mandalgovi,45.76,106.27,51.91,75.0,72.0,14.09,MN
134,saldanha,-33.01,17.94,46.4,75.0,17.0,6.93,ZA
136,pleasanton,37.66,-121.87,100.4,21.0,1.0,6.93,US
137,nueva gerona,21.88,-82.8,87.66,58.0,13.0,2.37,CU
138,mayumba,-3.43,10.66,74.19,90.0,98.0,9.04,GA
139,huadian,42.96,126.75,75.74,88.0,99.0,10.6,CN
140,talnakh,69.49,88.4,53.6,58.0,0.0,6.71,RU
142,kaiyuan,23.7,103.3,66.85,89.0,100.0,2.55,CN
144,kangaatsiaq,68.31,-53.46,47.77,68.0,61.0,1.92,GL
145,rocha,-34.48,-54.33,43.32,88.0,0.0,5.01,UY
146,santa maria,-29.68,-53.81,57.2,76.0,0.0,3.36,BR
147,ahuimanu,21.44,-157.84,87.8,55.0,40.0,13.87,US
148,karakol,42.49,78.39,57.07,89.0,95.0,0.65,KG
149,mahibadhoo,3.78,72.97,82.96,66.0,96.0,1.79,MV
150,vestmanna,62.16,-7.17,50.0,87.0,1.0,1.12,FO
153,tazovskiy,67.47,78.7,52.57,98.0,58.0,7.7,RU
154,dunedin,-45.87,170.5,51.01,63.0,65.0,5.99,NZ
155,alekseyevsk,57.84,108.35,49.62,63.0,0.0,3.69,RU
156,malvern,34.36,-92.81,91.0,38.0,1.0,3.36,US
157,huari,-9.33,-77.23,47.95,53.0,12.0,3.13,PE
159,beringovskiy,63.05,179.32,52.77,80.0,100.0,14.63,RU
160,port moresby,-9.44,147.18,77.0,73.0,40.0,3.36,PG
161,mandurah,-32.55,115.7,57.0,80.0,100.0,1.01,AU
162,hamilton,39.18,-84.53,84.2,45.0,40.0,4.7,US
165,mvuma,-19.28,30.53,51.4,84.0,0.0,6.71,ZW
167,olinda,-8.01,-34.86,78.8,74.0,20.0,11.41,BR
168,tasiilaq,65.61,-37.64,44.6,93.0,47.0,3.36,GL
169,saint-pierre,-21.34,55.48,66.2,63.0,20.0,6.93,RE
170,freeport,40.66,-73.58,73.99,73.0,90.0,14.99,US
171,kahului,20.89,-156.47,87.8,48.0,40.0,21.92,US
172,beloha,-25.17,45.05,63.7,96.0,27.0,7.11,MG
173,the pas,53.83,-101.25,71.6,60.0,1.0,10.96,CA
174,ancud,-41.87,-73.82,46.0,87.0,75.0,4.7,CL
176,baracoa,20.35,-74.5,82.69,80.0,74.0,4.21,CU
177,atar,20.52,-13.05,99.97,25.0,0.0,9.86,MR
178,dickinson,29.46,-95.05,93.99,49.0,40.0,8.05,US
179,katsuura,35.13,140.3,86.0,79.0,75.0,10.29,JP
180,piedra gorda,18.43,-66.89,86.0,100.0,17.0,11.23,PR
181,askino,56.09,56.58,50.94,95.0,100.0,10.65,RU
183,kemijarvi,66.71,27.43,46.4,77.0,93.0,1.81,FI
184,kindu,-2.95,25.95,73.67,71.0,67.0,2.39,CD
185,alice springs,-23.7,133.88,64.4,42.0,0.0,3.36,AU
186,cabo san lucas,22.89,-109.91,91.4,62.0,5.0,5.82,MX
187,belaya gora,68.53,146.42,46.96,68.0,94.0,8.34,RU
188,mar del plata,-38.0,-57.56,55.0,53.0,0.0,9.17,AR
189,nanortalik,60.14,-45.24,49.69,63.0,63.0,5.28,GL
190,taltal,-25.4,-70.48,51.8,76.0,23.0,5.03,CL
191,souillac,-20.52,57.52,69.8,77.0,20.0,9.17,MU
192,tigil,57.8,158.67,62.47,61.0,69.0,5.93,RU
193,port elizabeth,-33.92,25.57,51.8,71.0,75.0,34.45,ZA
194,sioux lookout,50.1,-91.92,69.8,46.0,40.0,9.17,CA
195,union,40.63,-74.27,77.0,73.0,40.0,5.82,US
196,north bend,43.41,-124.22,75.99,77.0,1.0,11.41,US
197,aripuana,-9.17,-60.63,84.33,22.0,66.0,0.45,BR
198,college,64.86,-147.8,69.01,40.0,20.0,6.93,US
199,saskylakh,71.92,114.08,53.04,84.0,94.0,11.74,RU
200,sao joao da barra,-21.64,-41.05,73.89,85.0,62.0,20.15,BR
201,magaria,13.0,8.91,81.95,68.0,29.0,10.31,NE
202,pochutla,15.74,-96.47,73.4,88.0,90.0,8.46,MX
203,kaitangata,-46.28,169.85,43.0,71.0,96.0,3.0,NZ
204,ulladulla,-35.35,150.47,60.01,51.0,72.0,3.36,AU
205,pilar,-9.6,-35.96,73.4,94.0,75.0,4.7,BR
206,shimoda,34.67,138.95,80.6,100.0,75.0,8.05,JP
207,atbasar,51.8,68.33,55.42,76.0,73.0,11.72,KZ
209,virginia beach,36.85,-75.98,78.01,69.0,75.0,8.05,US
210,hervey bay,-25.3,152.85,66.2,45.0,0.0,1.12,AU
211,eyrarbakki,63.86,-21.15,55.4,82.0,90.0,2.24,IS
212,ilulissat,69.22,-51.1,51.8,43.0,19.0,2.24,GL
213,quatre cocos,-20.21,57.76,71.01,77.0,20.0,9.17,MU
214,mitsamiouli,-11.38,43.28,76.44,75.0,51.0,7.09,KM
215,praia da vitoria,38.73,-27.07,75.2,83.0,40.0,20.29,PT
217,teguldet,57.31,88.17,53.53,96.0,72.0,5.19,RU
218,lufkin,31.34,-94.73,93.2,38.0,1.0,5.82,US
219,bengkulu,-3.8,102.27,74.93,89.0,30.0,4.14,ID
220,rurrenabaque,-14.44,-67.53,82.56,56.0,37.0,2.8,BO
221,humaita,-7.51,-63.02,86.38,29.0,34.0,1.3,BR
222,la ronge,55.1,-105.28,78.8,57.0,20.0,9.17,CA
223,roald,62.58,6.13,60.01,93.0,0.0,9.17,NO
224,yamachiche,46.27,-72.83,78.01,78.0,1.0,4.7,CA
225,kodinsk,58.69,99.18,52.29,62.0,93.0,3.02,RU
226,krutinka,56.01,71.51,52.84,89.0,48.0,8.9,RU
227,mackay,-21.15,149.2,70.0,26.0,0.0,5.82,AU
228,crotone,39.09,17.12,78.96,62.0,0.0,4.79,IT
229,cidreira,-30.18,-50.21,57.83,83.0,0.0,10.0,BR
230,lasa,46.62,10.7,55.4,93.0,40.0,3.36,IT
231,esperance,-33.87,121.9,48.2,93.0,90.0,25.28,AU
232,haines junction,60.75,-137.51,50.38,84.0,100.0,3.69,CA
234,kondinskoye,59.65,67.41,51.89,98.0,55.0,8.68,RU
235,havoysund,71.0,24.66,46.4,87.0,75.0,25.28,NO
237,cherskiy,68.75,161.3,43.57,84.0,100.0,12.88,RU
238,eureka,40.8,-124.16,64.99,16.0,100.0,3.0,US
239,upernavik,72.79,-56.15,46.81,55.0,100.0,3.67,GL
240,chokurdakh,70.63,147.92,40.28,83.0,100.0,11.83,RU
241,macia,-25.03,33.1,59.29,93.0,28.0,6.58,MZ
242,san jose,37.34,-121.89,93.0,40.0,75.0,10.29,US
243,antofagasta,-23.65,-70.4,57.2,62.0,75.0,12.75,CL
244,verkhnyaya inta,65.98,60.31,50.29,79.0,99.0,6.06,RU
245,bekeshevskaya,44.11,42.43,55.0,71.0,0.0,6.71,RU
246,kropotkin,45.44,40.58,61.48,45.0,0.0,2.51,RU
247,pisco,-13.7,-76.22,63.0,82.0,1.0,12.75,PE
248,rosita,13.93,-84.4,80.69,83.0,100.0,3.69,NI
249,rockland,41.17,-74.05,71.01,94.0,23.0,3.8,US
250,beidao,34.57,105.89,58.98,82.0,100.0,0.65,CN
251,buala,-8.14,159.59,84.47,69.0,73.0,3.0,SB
252,labuan,5.28,115.24,77.0,94.0,20.0,9.17,MY
253,kishorganj,24.43,90.77,78.4,93.0,98.0,8.59,BD
254,kuldiga,56.97,21.96,55.4,87.0,27.0,2.24,LV
255,puerto escondido,15.85,-97.07,78.8,69.0,90.0,5.82,MX
256,ouagadougou,12.36,-1.54,80.6,88.0,20.0,2.24,BF
257,biltine,14.53,20.92,82.51,62.0,58.0,6.85,TD
258,poum,-20.23,164.02,70.52,79.0,100.0,19.86,NC
259,flin flon,54.77,-101.86,71.6,64.0,20.0,6.93,CA
260,laguna,38.42,-121.42,106.0,27.0,1.0,8.05,US
261,chumikan,54.72,135.31,52.41,95.0,100.0,11.81,RU
262,caravelas,-17.71,-39.25,72.41,84.0,3.0,5.97,BR
263,ankara,39.92,32.85,69.8,32.0,0.0,3.36,TR
264,victoria,22.29,114.16,82.0,78.0,91.0,4.0,HK
266,koryazhma,61.31,47.17,43.16,87.0,10.0,4.23,RU
267,hilo,19.73,-155.09,84.2,62.0,75.0,11.41,US
268,yakeshi,49.28,120.73,59.99,94.0,100.0,5.57,CN
269,narsaq,60.92,-46.05,55.4,62.0,29.0,3.36,GL
270,margate,51.38,1.39,66.99,62.0,67.0,3.0,GB
271,erenhot,43.65,111.98,66.31,62.0,100.0,22.1,CN
272,bar harbor,44.39,-68.2,66.2,72.0,1.0,6.93,US
273,angoche,-16.23,39.91,71.46,91.0,5.0,7.34,MZ
274,dukat,62.55,155.55,47.84,58.0,98.0,4.03,RU
275,ajdabiya,30.76,20.23,76.71,61.0,0.0,9.31,LY
276,cockburn town,21.46,-71.14,84.2,79.0,40.0,5.82,TC
277,savannah bight,16.45,-85.85,84.69,71.0,64.0,7.9,HN
278,punta cardon,11.66,-70.22,84.13,72.0,20.0,20.76,VE
279,mount gambier,-37.83,140.77,48.2,100.0,90.0,9.17,AU
280,kashi,39.45,75.98,78.8,41.0,40.0,8.46,CN
281,karaton,-6.34,106.1,77.0,83.0,20.0,2.24,ID
282,fort-shevchenko,44.51,50.26,73.26,57.0,0.0,16.6,KZ
283,koroni,36.8,21.95,78.01,88.0,20.0,4.97,GR
284,pahrump,36.21,-115.98,113.0,7.0,52.0,5.99,US
286,sao jose da coroa grande,-8.9,-35.15,74.37,84.0,32.0,12.1,BR
287,coihaique,-45.58,-72.07,39.2,4.0,40.0,5.82,CL
288,piravam,9.87,76.5,78.8,94.0,75.0,1.92,IN
289,helong,42.54,129.0,80.17,68.0,93.0,10.2,CN
290,micheweni,-4.97,39.83,76.28,78.0,100.0,11.72,TZ
291,cabedelo,-6.98,-34.83,73.4,88.0,20.0,5.82,BR
292,palana,59.12,159.97,57.2,66.0,31.0,1.9,RU
293,ostersund,63.18,14.64,57.2,71.0,32.0,4.7,SE
294,tilichiki,60.47,166.1,55.69,45.0,8.0,13.62,RU
295,namibe,-15.2,12.15,58.68,84.0,10.0,7.38,AO
296,torbay,47.67,-52.73,64.99,68.0,90.0,13.87,CA
297,brae,60.4,-1.35,57.2,93.0,79.0,12.75,GB
298,umm lajj,25.02,37.27,86.18,57.0,0.0,5.95,SA
300,avarua,-21.21,-159.78,73.4,64.0,24.0,13.87,CK
301,channel-port aux basques,47.57,-59.14,62.22,69.0,81.0,7.36,CA
302,lagoa,39.05,-27.98,74.46,89.0,85.0,25.79,PT
303,kalengwa,-13.47,25.0,59.0,34.0,0.0,3.76,ZM
304,marrakesh,31.63,-8.01,77.0,53.0,0.0,13.87,MA
305,half moon bay,37.46,-122.43,87.01,42.0,75.0,11.41,US
306,dovers,12.88,-61.18,77.0,100.0,75.0,3.36,VC
307,pacific grove,36.62,-121.92,75.2,56.0,40.0,8.05,US
308,kimbe,-5.55,150.14,81.75,63.0,1.0,7.61,PG
309,najran,17.49,44.13,84.2,26.0,91.0,4.7,SA
310,saint-francois,46.42,3.91,62.6,77.0,89.0,2.24,FR
311,iqaluit,63.75,-68.51,42.8,93.0,40.0,9.17,CA
312,do gonbadan,30.36,50.8,80.6,26.0,0.0,0.29,IR
313,kandi,11.13,2.94,75.61,88.0,68.0,4.16,BJ
314,pasighat,28.07,95.33,74.25,85.0,18.0,1.97,IN
315,port hedland,-20.32,118.57,59.0,44.0,0.0,8.05,AU
316,acarau,-2.89,-40.12,78.15,74.0,39.0,16.53,BR
317,fushe-arrez,42.06,20.02,65.73,55.0,0.0,0.74,AL
319,vardo,70.37,31.11,42.8,87.0,40.0,3.36,NO
320,touros,-5.2,-35.46,75.2,83.0,20.0,6.93,BR
321,panguna,-6.32,155.48,76.84,84.0,38.0,1.3,PG
322,mamallapuram,12.63,80.17,84.2,83.0,75.0,4.7,IN
323,norsup,-16.07,167.38,84.2,74.0,75.0,3.36,VU
324,kulu,39.1,33.08,60.73,42.0,0.0,5.88,TR
325,argelia,2.26,-77.25,68.83,77.0,81.0,2.48,CO
327,kuopio,62.89,27.68,48.2,81.0,80.0,3.36,FI
328,kuybysheve,47.36,36.65,64.98,57.0,0.0,5.21,UA
329,geraldton,-28.77,114.6,50.0,100.0,90.0,8.05,AU
330,dikson,73.51,80.55,49.82,94.0,81.0,12.37,RU
331,pangnirtung,66.15,-65.71,46.4,93.0,75.0,11.41,CA
332,ahipara,-35.17,173.17,59.5,74.0,100.0,17.02,NZ
333,yulara,-25.24,130.99,55.4,28.0,0.0,2.48,AU
334,synya,65.37,58.04,49.15,96.0,100.0,2.82,RU
335,vostok,46.49,135.88,62.76,76.0,96.0,4.76,RU
336,san jeronimo,-11.95,-75.28,56.37,43.0,100.0,7.49,PE
337,severo-kurilsk,50.68,156.12,53.15,86.0,90.0,2.26,RU
338,vitim,59.45,112.56,52.43,55.0,0.0,0.58,RU
339,longyearbyen,78.22,15.64,44.6,81.0,75.0,8.05,SJ
340,awjilah,29.11,21.29,82.76,37.0,0.0,12.88,LY
341,kasempa,-13.46,25.83,62.29,30.0,0.0,5.55,ZM
342,stornoway,58.21,-6.39,59.0,93.0,89.0,8.05,GB
343,korla,41.76,86.15,78.01,51.0,29.0,3.0,CN
344,naze,28.37,129.48,86.0,79.0,20.0,6.93,JP
345,odweyne,9.41,45.06,74.79,56.0,74.0,21.65,SO
346,rock sound,24.9,-76.2,84.7,70.0,73.0,8.12,BS
347,toamasina,-18.17,49.38,66.18,85.0,24.0,5.61,MG
348,manjo,4.84,9.82,70.09,96.0,100.0,0.67,CM
349,kysyl-syr,63.9,122.76,52.41,54.0,0.0,4.27,RU
351,cusuna,15.85,-85.23,80.08,85.0,98.0,3.09,HN
352,huangpi,30.88,114.38,84.2,79.0,0.0,4.47,CN
353,honiara,-9.43,159.95,86.0,70.0,40.0,4.7,SB
355,nago,26.59,127.98,84.2,83.0,1.0,6.93,JP
356,vallenar,-28.57,-70.76,57.7,55.0,0.0,3.78,CL
357,nome,64.5,-165.41,68.0,55.0,1.0,19.46,US
358,porto nacional,-10.71,-48.42,84.2,48.0,60.0,5.82,BR
359,port blair,11.67,92.75,81.07,80.0,90.0,11.5,IN
360,salalah,17.02,54.09,77.0,100.0,90.0,4.7,OM
361,omboue,-1.57,9.26,74.95,83.0,100.0,8.99,GA
362,puerto baquerizo moreno,-0.9,-89.6,66.15,86.0,91.0,12.15,EC
363,provideniya,64.38,-173.3,51.8,71.0,100.0,13.42,RU
364,bardiyah,31.76,25.09,75.69,82.0,0.0,12.37,LY
365,qui nhon,13.77,109.23,78.82,79.0,77.0,4.45,VN
366,vila velha,-20.33,-40.29,75.2,83.0,40.0,14.99,BR
367,mancora,-4.11,-81.05,70.39,68.0,19.0,15.66,PE
369,pyapon,16.28,95.68,78.19,88.0,100.0,5.97,MM
370,oriximina,-1.77,-55.87,87.24,43.0,44.0,3.2,BR
371,bethanien,-26.5,17.16,40.05,75.0,0.0,8.39,NA
372,murray bridge,-35.12,139.27,54.0,81.0,12.0,11.99,AU
373,kisangani,0.52,25.2,73.29,85.0,100.0,1.83,CD
374,shenjiamen,29.96,122.3,81.46,85.0,0.0,11.54,CN
375,yatou,37.15,122.38,77.56,94.0,86.0,9.6,CN
376,slave lake,55.28,-114.77,75.2,64.0,75.0,3.36,CA
377,chepareria,1.31,35.2,61.11,81.0,63.0,1.25,KE
378,elwood,-37.88,144.98,55.99,81.0,7.0,13.87,AU
379,pasni,25.26,63.47,82.17,85.0,100.0,6.42,PK
380,dieppe,49.75,1.17,62.01,100.0,77.0,4.7,FR
381,curitibanos,-27.28,-50.58,55.47,98.0,16.0,4.88,BR
382,tomatlan,19.93,-105.25,77.81,92.0,50.0,4.27,MX
383,yaan,7.38,8.57,75.02,91.0,100.0,8.3,NG
384,saint-augustin,51.23,-58.65,62.58,69.0,100.0,10.69,CA
385,yeovil,50.94,-2.63,62.6,88.0,96.0,6.93,GB
386,bubaque,11.28,-15.83,80.44,81.0,83.0,16.04,GW
387,stevens point,44.52,-89.57,75.2,44.0,40.0,9.17,US
388,korhogo,9.45,-5.63,73.15,91.0,45.0,3.62,CI
389,sitka,57.05,-135.33,59.0,77.0,75.0,5.82,US
390,sabang,5.89,95.32,82.2,77.0,1.0,12.95,ID
391,komsomolskiy,40.43,71.72,69.8,83.0,90.0,2.24,UZ
392,chisinau,47.01,28.86,66.2,48.0,0.0,6.93,MD
393,watertown,42.37,-71.18,71.01,72.0,20.0,13.87,US
395,locri,38.24,16.26,82.0,69.0,0.0,6.93,IT
397,seymchan,62.88,152.43,49.32,68.0,100.0,2.89,RU
398,dubna,56.73,37.17,49.78,82.0,0.0,3.94,RU
399,srednekolymsk,67.45,153.68,47.01,73.0,99.0,14.5,RU
400,lompoc,34.64,-120.46,84.0,68.0,1.0,16.11,US
401,santa maria do suacui,-18.19,-42.41,69.87,77.0,15.0,3.22,BR
402,klaksvik,62.23,-6.59,50.0,87.0,0.0,1.12,FO
403,henties bay,-22.12,14.28,53.01,81.0,0.0,12.01,NA
404,aykhal,66.0,111.5,57.2,46.0,62.0,4.47,RU
405,rawson,-43.3,-65.1,52.07,43.0,100.0,23.35,AR
406,pombas,17.15,-25.02,80.6,78.0,75.0,10.29,CV
407,vilyuysk,63.76,121.62,51.85,55.0,0.0,3.87,RU
408,clyde river,70.47,-68.59,55.4,76.0,1.0,17.22,CA
409,iguape,-24.71,-47.56,65.59,93.0,100.0,5.19,BR
410,gizo,-8.1,156.84,81.37,80.0,43.0,13.38,SB
412,kralendijk,12.15,-68.27,84.2,79.0,88.0,10.29,BQ
413,anzhero-sudzhensk,56.08,86.03,55.4,100.0,40.0,3.11,RU
414,vao,-22.67,167.48,70.02,81.0,50.0,17.31,NC
416,chulumani,-16.41,-67.53,62.92,82.0,63.0,2.19,BO
417,sturgeon falls,46.36,-79.93,64.4,77.0,75.0,4.7,CA
418,ambilobe,-13.2,49.05,64.67,78.0,0.0,3.22,MG
419,traverse city,44.76,-85.62,75.2,47.0,20.0,11.41,US
420,mariestad,58.71,13.82,60.8,100.0,100.0,2.24,SE
422,kirovskiy,45.09,133.51,65.26,92.0,100.0,5.37,RU
423,porto tolle,44.95,12.32,73.0,84.0,72.0,5.86,IT
424,iskateley,67.68,53.15,47.21,94.0,100.0,7.18,RU
425,padang,-0.95,100.35,77.0,70.0,60.0,3.38,ID
426,redmond,47.67,-122.12,91.0,43.0,0.0,5.53,US
428,soyo,-6.13,12.37,72.3,88.0,79.0,9.73,AO
429,tortoli,39.93,9.66,75.2,94.0,5.0,10.29,IT
430,imeni poliny osipenko,52.42,136.49,53.22,98.0,100.0,4.38,RU
431,moree,-29.47,149.85,55.4,66.0,7.0,13.87,AU
432,qasigiannguit,68.82,-51.19,51.8,43.0,23.0,2.24,GL
433,namatanai,-3.67,152.43,82.62,72.0,2.0,9.95,PG
434,pulandian,39.4,121.97,82.0,88.0,20.0,6.71,CN
435,papara,-3.98,-38.73,80.6,69.0,65.0,10.29,BR
436,santiago de cao,-7.96,-79.24,61.39,83.0,33.0,14.23,PE
437,avera,33.19,-82.53,87.8,62.0,40.0,8.05,US
438,lorengau,-2.02,147.27,82.92,78.0,11.0,9.26,PG
439,kaeo,-35.1,173.78,59.0,3.0,100.0,14.0,NZ
440,yamada,39.47,141.95,74.95,83.0,95.0,3.13,JP
441,jiuquan,39.74,98.52,65.34,25.0,0.0,7.65,CN
442,pauini,-7.71,-66.98,87.26,43.0,44.0,2.89,BR
443,waipawa,-41.41,175.52,53.01,62.0,83.0,3.36,NZ
444,terme,41.21,36.97,60.8,82.0,40.0,4.7,TR
445,gulbene,57.18,26.75,50.41,85.0,83.0,0.58,LV
446,richards bay,-28.78,32.04,67.05,67.0,0.0,21.34,ZA
448,rio grande,-32.03,-52.1,54.0,78.0,0.0,6.85,BR
449,aitape,-3.14,142.35,81.61,71.0,7.0,4.56,PG
450,muros,42.78,-9.06,64.99,94.0,100.0,4.56,ES
451,high level,58.52,-117.14,77.0,61.0,20.0,11.41,CA
452,makurdi,7.74,8.51,75.94,91.0,93.0,7.2,NG
454,morant bay,17.88,-76.41,86.0,70.0,75.0,10.29,JM
455,areka,7.07,37.7,62.38,87.0,94.0,1.36,ET
456,baiyin,36.56,104.21,61.0,100.0,40.0,4.47,CN
457,kyshtovka,56.55,76.63,53.53,91.0,80.0,5.01,RU
458,vezirkopru,41.14,35.45,55.4,50.0,0.0,8.05,TR
459,denison,33.76,-96.54,93.2,41.0,75.0,11.41,US
460,marawi,8.0,124.29,75.0,92.0,83.0,5.99,PH
461,ribeira brava,32.65,-17.07,73.4,73.0,20.0,5.82,PT
462,umm kaddadah,13.6,26.69,81.84,62.0,76.0,8.66,SD
463,husavik,66.04,-17.34,50.0,93.0,91.0,3.36,IS
464,impfondo,1.64,18.07,72.32,95.0,44.0,1.68,CG
465,gerede,40.8,32.2,51.85,68.0,0.0,3.02,TR
466,pringsewu,-5.36,104.97,71.91,91.0,27.0,1.52,ID
467,yarada,17.65,83.27,80.6,88.0,90.0,6.93,IN
468,kargasok,59.06,80.86,56.07,94.0,97.0,9.17,RU
469,ostrovnoy,68.05,39.51,41.38,87.0,80.0,12.33,RU
470,tuatapere,-46.13,167.68,35.01,97.0,85.0,4.0,NZ
471,sur,22.57,59.53,88.03,59.0,70.0,7.09,OM
472,boguchany,58.38,97.45,50.65,68.0,5.0,4.05,RU
473,alyangula,-13.85,136.42,71.6,68.0,1.0,4.7,AU
474,zyryanka,65.75,150.85,53.55,43.0,0.0,2.46,RU
475,lipany,49.15,20.96,62.01,99.0,56.0,2.8,SK
476,vetlanda,57.43,15.08,64.99,82.0,100.0,3.36,SE
477,port pirie,-33.18,138.02,51.8,71.0,0.0,13.87,AU
478,okha,53.57,142.95,57.67,77.0,98.0,0.69,RU
479,sandakan,5.84,118.12,75.2,100.0,40.0,3.36,MY
480,san rafael,-34.62,-68.33,58.84,30.0,0.0,9.28,AR
481,plouzane,48.38,-4.62,62.6,93.0,90.0,9.17,FR
483,orzhytsya,49.79,32.7,64.98,66.0,0.0,0.76,UA
484,abha,18.22,42.51,68.0,59.0,96.0,3.53,SA
485,nizhniy kuranakh,58.84,125.49,48.36,81.0,84.0,1.97,RU
486,falun,60.6,15.63,55.4,93.0,5.0,2.24,SE
487,mandsaur,24.07,75.07,76.66,92.0,99.0,13.69,IN
488,taoudenni,22.68,-3.98,104.63,7.0,0.0,8.97,ML
490,copiapo,-27.37,-70.33,51.8,76.0,0.0,10.29,CL
491,basoko,1.24,23.62,73.51,89.0,99.0,2.71,CD
492,hearst,49.68,-83.67,59.76,76.0,30.0,6.78,CA
493,akyab,20.15,92.9,80.82,86.0,100.0,13.85,MM
494,vytegra,61.01,36.45,49.24,73.0,67.0,3.29,RU
495,flinders,-34.58,150.86,62.01,63.0,60.0,7.0,AU
496,saint-georges,12.06,-61.75,80.6,88.0,40.0,5.82,GD
497,pueblo nuevo,23.38,-105.38,70.18,88.0,96.0,1.61,MX
498,santa rosa,14.31,121.11,82.4,88.0,93.0,3.36,PH
499,fuquay-varina,35.58,-78.8,73.0,65.0,71.0,1.99,US
500,paranapanema,-23.39,-48.72,63.23,92.0,100.0,6.89,BR
501,charters towers,-20.1,146.27,67.37,30.0,3.0,6.76,AU
502,iquitos,-3.75,-73.25,84.2,74.0,75.0,2.24,PE
503,tullahoma,35.36,-86.21,84.2,48.0,1.0,6.93,US
504,liverpool,53.41,-2.98,63.0,88.0,95.0,4.7,GB
505,souris,49.62,-100.26,82.99,54.0,40.0,5.82,CA
506,moindou,-21.69,165.68,71.6,73.0,75.0,2.24,NC
507,vargashi,55.36,65.85,48.92,96.0,25.0,7.72,RU
508,leningradskiy,69.38,178.42,43.59,66.0,94.0,8.84,RU
509,lere,10.39,8.57,70.25,90.0,59.0,3.24,NG
511,okitipupa,6.5,4.78,72.25,94.0,13.0,3.06,NG
512,along,28.17,94.77,72.39,89.0,65.0,1.14,IN
513,sassandra,4.95,-6.08,72.88,88.0,74.0,6.58,CI
514,shellbrook,53.22,-106.4,89.6,33.0,75.0,2.24,CA
515,gorodovikovsk,46.09,41.93,64.22,44.0,0.0,4.03,RU
516,noumea,-22.28,166.46,73.0,73.0,75.0,2.24,NC
517,maniwaki,46.38,-75.97,68.41,74.0,56.0,2.35,CA
518,ornskoldsvik,63.29,18.72,46.4,93.0,0.0,3.36,SE
519,ribeira grande,38.52,-28.7,74.68,88.0,89.0,22.39,PT
520,jining,35.41,116.58,80.31,92.0,0.0,8.88,CN
521,nichinan,31.6,131.37,87.8,66.0,20.0,6.93,JP
522,borogontsy,62.67,131.17,51.8,47.0,89.0,2.8,RU
523,san quintin,30.48,-115.95,78.35,64.0,59.0,8.01,MX
524,manzanillo,20.34,-77.12,83.62,78.0,30.0,5.39,CU
525,kamaishi,39.27,141.88,77.0,83.0,75.0,6.93,JP
526,vila franca do campo,37.72,-25.43,73.4,94.0,75.0,21.92,PT
527,maarianhamina,60.1,19.93,53.6,93.0,88.0,2.24,AX
528,quchan,37.11,58.51,60.62,38.0,0.0,3.96,IR
529,mandeville,18.04,-77.51,86.0,74.0,40.0,9.17,JM
530,scotts valley,37.05,-122.01,91.99,50.0,66.0,3.22,US
531,sao felix do xingu,-6.64,-51.99,81.05,31.0,0.0,0.34,BR
532,walvis bay,-22.96,14.51,53.01,71.0,0.0,3.36,NA
533,bonavista,48.65,-53.11,61.0,83.0,100.0,1.01,CA
534,bam,29.11,58.36,88.5,18.0,90.0,8.84,IR
535,bolgar,54.95,49.07,53.6,71.0,7.0,11.18,RU
536,konevo,62.12,39.32,43.11,93.0,88.0,4.54,RU
537,almaznyy,48.04,40.05,62.6,67.0,0.0,8.95,RU
538,sawakin,19.11,37.33,92.44,46.0,0.0,1.45,SD
539,ous,60.91,61.52,54.03,98.0,100.0,5.91,RU
540,urumqi,43.8,87.6,75.2,31.0,11.0,11.18,CN
542,gamba,-2.65,10.0,73.78,89.0,100.0,7.61,GA
543,havre,49.58,0.33,64.4,88.0,90.0,8.05,FR
544,binucayan,8.25,125.72,75.43,91.0,82.0,0.92,PH
545,ouadda,8.08,22.4,68.95,95.0,93.0,1.7,CF
546,balkanabat,39.51,54.37,78.03,33.0,77.0,1.54,TM
548,aldergrove,49.06,-122.47,86.0,45.0,20.0,10.29,CA
549,tabou,4.42,-7.35,75.06,79.0,78.0,9.42,CI
550,soligalich,59.08,42.29,46.96,78.0,86.0,5.61,RU
551,hovd,48.01,91.64,57.22,66.0,17.0,0.2,MN
552,xining,36.62,101.77,46.85,72.0,0.0,2.57,CN
553,itoman,26.12,127.67,86.0,79.0,20.0,8.05,JP
554,mackenzie,55.3,-123.17,78.8,36.0,75.0,14.99,CA
555,ewa beach,21.32,-158.01,87.8,58.0,75.0,4.7,US
556,jalu,29.03,21.55,82.54,36.0,0.0,11.36,LY
557,marsh harbour,26.54,-77.06,84.96,68.0,95.0,5.44,BS
558,ryazhsk,53.7,40.11,53.01,83.0,43.0,4.43,RU
559,broken hill,-31.95,141.43,53.6,66.0,2.0,5.5,AU
560,constitucion,-35.33,-72.42,48.96,80.0,6.0,11.59,CL
561,mokhsogollokh,61.47,128.92,51.08,62.0,81.0,4.29,RU
562,erzin,36.96,36.2,78.01,87.0,0.0,0.81,TR
564,vanavara,60.34,102.28,48.79,65.0,99.0,4.76,RU
565,sola,-13.88,167.55,80.17,79.0,28.0,2.98,VU
566,grindavik,63.84,-22.43,53.6,93.0,75.0,2.24,IS
567,majene,-3.54,118.97,75.09,82.0,62.0,8.23,ID
568,cabra,37.47,-4.44,73.99,52.0,0.0,2.42,ES
569,bowen,-20.02,148.23,75.99,72.0,0.0,3.36,AU
570,cuamba,-14.8,36.54,68.88,62.0,61.0,3.53,MZ
571,mehamn,71.04,27.85,46.4,81.0,75.0,17.22,NO
572,kidal,18.44,1.41,88.43,48.0,4.0,9.75,ML
573,birao,10.28,22.79,71.96,96.0,96.0,3.42,CF
575,darayya,33.46,36.24,69.8,60.0,0.0,9.17,SY
577,miri,4.41,114.01,73.4,100.0,40.0,1.12,MY
579,samarai,-10.62,150.67,75.81,61.0,43.0,8.03,PG
580,asyut,27.18,31.18,80.6,39.0,0.0,6.93,EG
581,tari,12.41,4.49,81.52,71.0,94.0,10.33,NG
582,presidencia roque saenz pena,-26.79,-60.44,59.88,38.0,0.0,5.82,AR
583,sao filipe,14.9,-24.5,78.06,85.0,62.0,2.01,CV
584,martinho campos,-19.33,-45.24,75.65,43.0,0.0,5.44,BR
585,leeton,-34.57,146.4,57.0,76.0,75.0,9.17,AU
587,algeciras,36.13,-5.45,78.8,57.0,0.0,12.75,ES
588,qaqortoq,60.72,-46.03,55.4,62.0,3.0,3.36,GL
589,manjacaze,-24.71,33.88,60.04,94.0,0.0,7.36,MZ
590,vestmannaeyjar,63.44,-20.27,53.56,92.0,98.0,8.72,IS
591,chernyshevskiy,63.01,112.47,53.19,61.0,0.0,1.95,RU
592,palmas bellas,9.23,-80.09,81.0,88.0,95.0,3.0,PA
593,eyl,7.98,49.82,75.88,72.0,44.0,25.21,SO
594,yangjiang,21.85,111.97,84.99,72.0,60.0,5.66,CN
595,san policarpo,12.18,125.51,79.52,83.0,65.0,6.11,PH
596,preobrazheniye,42.9,133.91,73.02,75.0,76.0,7.23,RU
597,andenes,69.31,16.12,50.0,87.0,100.0,19.46,NO
598,abu kamal,34.45,40.92,79.74,32.0,0.0,11.81,SY
599,muisne,0.6,-80.03,80.6,74.0,75.0,10.29,EC
600,mareeba,-17.0,145.43,73.99,60.0,70.0,2.24,AU
601,paamiut,61.99,-49.67,48.34,66.0,0.0,11.12,GL
602,praia,14.92,-23.51,80.6,83.0,20.0,4.7,CV
603,steamboat springs,40.48,-106.83,90.0,12.0,1.0,8.05,US
604,hailey,43.52,-114.32,93.2,17.0,40.0,9.17,US
605,acajutla,13.59,-89.83,77.0,78.0,40.0,3.36,SV
606,makakilo city,21.35,-158.09,87.8,58.0,75.0,4.7,US
607,bairnsdale,-37.83,147.62,59.0,66.0,42.0,3.0,AU
608,colares,38.8,-9.45,72.0,88.0,1.0,7.0,PT
609,nuuk,64.18,-51.72,59.0,41.0,0.0,5.82,GL
